,City,Lat,Lng,MaxTemp,Humidity,Cloudiness,Wind Speed,Country,Date
0,tuktoyaktuk,69.45,-133.04,44.6,75.0,40.0,4.7,CA,1595473502.0
1,vaini,-21.2,-175.2,73.4,78.0,75.0,12.75,TO,1595473576.0
2,butaritari,3.07,172.79,83.48,76.0,95.0,14.83,KI,1595473754.0
3,albany,42.6,-73.97,72.0,92.0,100.0,4.16,US,1595473697.0
4,sao filipe,14.9,-24.5,79.14,81.0,38.0,4.7,CV,1595473994.0
5,mataura,-46.19,168.86,39.0,83.0,100.0,3.0,NZ,1595473565.0
6,gamba,-2.65,10.0,69.71,87.0,85.0,2.93,GA,1595473995.0
7,bluff,-46.6,168.33,39.0,83.0,89.0,3.0,NZ,1595473503.0
8,ushuaia,-54.8,-68.3,39.2,55.0,100.0,13.87,AR,1595473558.0
9,lebu,-37.62,-73.65,45.93,81.0,42.0,4.45,CL,1595473566.0
10,provideniya,64.38,-173.3,53.6,76.0,0.0,13.42,RU,1595473581.0
11,lorengau,-2.02,147.27,84.2,75.0,51.0,9.42,PG,1595473628.0
12,cape town,-33.93,18.42,55.0,93.0,0.0,5.82,ZA,1595473514.0
13,hobart,-42.88,147.33,55.0,50.0,20.0,13.87,AU,1595473557.0
14,lufkin,31.34,-94.73,80.6,83.0,1.0,3.36,US,1595473999.0
15,puerto ayora,-0.74,-90.35,68.0,93.0,98.0,4.0,EC,1595473759.0
16,punta arenas,-53.15,-70.92,32.0,100.0,28.0,5.82,CL,1595473684.0
17,mtwango,-9.02,34.8,51.69,80.0,37.0,11.1,TZ,1595473746.0
18,tessalit,20.2,1.01,89.6,28.0,0.0,6.69,ML,1595473818.0
19,rikitea,-23.12,-134.97,66.51,69.0,100.0,17.36,PF,1595473746.0
20,nanortalik,60.14,-45.24,48.4,81.0,100.0,6.06,GL,1595473768.0
21,airai,-8.93,125.41,71.08,42.0,37.0,5.44,TL,1595473744.0
22,jamestown,42.1,-79.24,72.0,94.0,90.0,6.93,US,1595473763.0
23,pangnirtung,66.15,-65.71,52.12,71.0,100.0,4.59,CA,1595474002.0
24,sitka,57.05,-135.33,57.2,82.0,90.0,6.93,US,1595473809.0
25,poitiers,46.58,0.33,57.2,62.0,7.0,3.36,FR,1595474003.0
27,abong mbang,3.98,13.18,65.25,98.0,100.0,2.55,CM,1595474004.0
28,new norfolk,-42.78,147.06,55.0,76.0,98.0,4.0,AU,1595473744.0
29,hermanus,-34.42,19.23,51.01,95.0,0.0,5.14,ZA,1595473757.0
30,praya,14.92,-23.51,78.8,83.0,20.0,3.36,CV,1595473621.0
32,barrow,71.29,-156.79,42.8,81.0,90.0,9.17,US,1595473758.0
33,bredasdorp,-34.53,20.04,57.2,93.0,0.0,1.12,ZA,1595473745.0
34,koulikoro,14.0,-7.75,74.73,84.0,100.0,6.35,ML,1595474007.0
35,saldanha,-33.01,17.94,48.2,87.0,0.0,4.7,ZA,1595473772.0
36,chuy,-33.7,-53.46,63.7,94.0,100.0,6.26,UY,1595473565.0
37,kapaa,22.08,-159.32,82.4,74.0,40.0,11.41,US,1595473503.0
38,tiksi,71.69,128.87,58.15,76.0,46.0,6.89,RU,1595473759.0
39,kota kinabalu,5.97,116.07,87.8,74.0,20.0,4.7,MY,1595474009.0
40,hay river,60.82,-115.8,64.4,93.0,75.0,6.93,CA,1595474010.0
41,galveston,29.37,-94.97,87.01,74.0,1.0,10.29,US,1595474010.0
42,gejiu,23.31,103.16,69.03,81.0,52.0,5.23,CN,1595474010.0
44,kudahuvadhoo,2.67,72.89,83.17,75.0,85.0,15.26,MV,1595474011.0
45,obidos,-1.92,-55.52,77.07,78.0,62.0,3.4,BR,1595474011.0
46,betare oya,5.6,14.08,64.65,97.0,100.0,3.15,CM,1595474012.0
47,lata,40.16,-8.33,68.0,75.0,0.0,1.45,PT,1595473605.0
48,longyearbyen,78.22,15.64,44.6,93.0,75.0,6.93,SJ,1595473512.0
49,behshahr,36.69,53.55,78.8,94.0,75.0,6.93,IR,1595474013.0
50,busselton,-33.65,115.33,57.0,71.0,83.0,8.99,AU,1595473753.0
51,port alfred,-33.59,26.89,65.25,35.0,0.0,8.75,ZA,1595473627.0
52,hammerfest,70.66,23.68,46.4,93.0,90.0,17.22,NO,1595473751.0
53,vredendal,-31.67,18.5,57.52,45.0,0.0,5.03,ZA,1595474014.0
54,east london,-33.02,27.91,63.57,29.0,0.0,7.7,ZA,1595473761.0
56,hengyang,26.89,112.61,92.12,56.0,92.0,8.48,CN,1595474015.0
57,ribeira grande,38.52,-28.7,69.94,70.0,15.0,3.91,PT,1595473776.0
58,joensuu,62.6,29.76,55.99,100.0,90.0,11.41,FI,1595474016.0
59,port pirie,-33.18,138.02,57.2,54.0,0.0,6.93,AU,1595474016.0
60,moree,-29.47,149.85,68.0,32.0,13.0,5.82,AU,1595474016.0
61,puerto leguizamo,-0.19,-74.78,71.08,97.0,53.0,1.07,CO,1595474017.0
62,umba,66.69,34.34,62.04,80.0,99.0,11.97,RU,1595474017.0
63,bengkulu,-3.8,102.27,83.98,64.0,56.0,2.48,ID,1595473534.0
64,sokolniki,50.64,21.81,55.0,90.0,26.0,0.43,PL,1595474018.0
65,tabou,4.42,-7.35,74.84,88.0,77.0,9.73,CI,1595473761.0
66,kamuli,0.95,33.12,63.34,93.0,66.0,0.6,UG,1595474018.0
68,alofi,-19.06,-169.92,73.4,94.0,75.0,14.99,NU,1595473770.0
69,saint george,37.1,-113.58,98.6,13.0,1.0,13.87,US,1595473588.0
70,kostino,58.91,53.27,61.38,90.0,100.0,4.52,RU,1595474019.0
71,rafsanjan,30.41,55.99,81.79,19.0,0.0,1.34,IR,1595474020.0
72,camacha,33.08,-16.33,68.0,72.0,40.0,12.75,PT,1595474020.0
73,nyurba,63.28,118.33,73.49,52.0,2.0,8.08,RU,1595473762.0
74,mar del plata,-38.0,-57.56,52.0,100.0,90.0,17.22,AR,1595473746.0
76,yellowknife,62.46,-114.35,66.0,100.0,75.0,6.93,CA,1595473743.0
77,dikson,73.51,80.55,40.01,91.0,99.0,8.77,RU,1595473770.0
78,clinton,42.59,-82.92,81.0,78.0,75.0,5.82,US,1595474022.0
79,puerto escondido,15.85,-97.07,80.65,78.0,100.0,3.02,MX,1595473542.0
80,qaanaaq,77.48,-69.36,43.59,61.0,0.0,1.12,GL,1595473752.0
81,posadas,-27.37,-55.9,67.89,77.0,100.0,7.4,AR,1595474023.0
82,port elizabeth,-33.92,25.57,59.0,100.0,90.0,11.41,ZA,1595473753.0
83,gogrial,8.53,28.1,69.87,94.0,100.0,3.04,SS,1595474024.0
84,thompson,55.74,-97.86,73.4,64.0,40.0,3.36,CA,1595473555.0
85,saskylakh,71.92,114.08,50.56,89.0,100.0,12.46,RU,1595473763.0
86,kirakira,-10.45,161.92,80.44,82.0,97.0,15.77,SB,1595473776.0
87,trelew,-43.25,-65.31,40.3,71.0,100.0,8.59,AR,1595474026.0
88,khatanga,71.97,102.5,45.75,81.0,100.0,18.77,RU,1595473601.0
89,rio gallegos,-51.62,-69.22,14.0,85.0,0.0,4.7,AR,1595473531.0
90,vardo,70.37,31.11,57.2,82.0,50.0,2.24,NO,1595473539.0
91,nakhon thai,17.1,100.84,84.2,88.0,40.0,2.24,TH,1595474027.0
92,victoria,22.29,114.16,91.99,67.0,12.0,1.99,HK,1595473697.0
93,narsaq,60.92,-46.05,62.6,54.0,100.0,28.86,GL,1595473501.0
94,dingle,11.0,122.67,86.5,72.0,70.0,7.56,PH,1595473810.0
95,atuona,-9.8,-139.03,79.11,76.0,0.0,17.87,PF,1595473504.0
96,la paz,-16.5,-68.15,39.2,69.0,0.0,4.7,BO,1595473736.0
97,yorosso,12.35,-4.78,72.32,91.0,49.0,5.75,ML,1595474029.0
98,vila velha,-20.33,-40.29,69.8,83.0,0.0,2.24,BR,1595473795.0
100,arraial do cabo,-22.97,-42.03,70.99,87.0,0.0,7.81,BR,1595473504.0
101,praia da vitoria,38.73,-27.07,66.2,82.0,20.0,2.3,PT,1595473750.0
102,mount gambier,-37.83,140.77,50.0,71.0,90.0,8.05,AU,1595473572.0
103,villazon,-22.09,-65.59,43.2,55.0,0.0,1.61,BO,1595474031.0
104,upernavik,72.79,-56.15,45.27,76.0,0.0,13.13,GL,1595473744.0
106,mayo,38.89,-76.51,75.2,94.0,1.0,4.7,US,1595474033.0
107,bambous virieux,-20.34,57.76,69.8,52.0,75.0,13.87,MU,1595473745.0
108,plouzane,48.38,-4.62,55.4,93.0,90.0,4.7,FR,1595473773.0
109,kavaratti,10.57,72.64,83.14,73.0,100.0,5.48,IN,1595473786.0
110,sur,22.57,59.53,85.68,68.0,69.0,13.67,OM,1595474035.0
111,katangli,51.71,143.23,51.37,89.0,100.0,12.28,RU,1595474035.0
112,itarema,-2.92,-39.92,75.7,83.0,2.0,10.87,BR,1595473760.0
113,esperance,-33.87,121.9,60.8,63.0,40.0,27.51,AU,1595473808.0
114,abnub,27.27,31.15,77.0,53.0,0.0,11.41,EG,1595474036.0
115,solnechnyy,50.72,136.63,64.74,80.0,93.0,5.73,RU,1595474037.0
116,corn island,12.17,-83.04,82.85,81.0,100.0,13.02,NI,1595474037.0
117,port hedland,-20.32,118.57,80.6,22.0,0.0,16.11,AU,1595473786.0
118,ulladulla,-35.35,150.47,62.01,59.0,40.0,4.7,AU,1595474038.0
120,cidreira,-30.18,-50.21,64.47,78.0,99.0,11.56,BR,1595473590.0
121,mahebourg,-20.41,57.7,69.8,52.0,75.0,13.87,MU,1595473808.0
122,vila do maio,15.13,-23.22,78.8,83.0,20.0,3.36,CV,1595474040.0
123,acapulco,16.86,-99.89,82.4,78.0,75.0,4.7,MX,1595474040.0
124,bolivar,37.61,-93.41,80.01,78.0,4.0,3.47,US,1595474040.0
125,bronnoysund,65.46,12.2,53.6,76.0,100.0,11.41,NO,1595474041.0
126,sibu,2.3,111.82,77.0,88.0,20.0,2.24,MY,1595474042.0
127,sibiti,-3.68,13.35,62.98,94.0,100.0,1.74,CG,1595474042.0
128,port lincoln,-34.73,135.87,56.28,57.0,1.0,9.44,AU,1595473801.0
130,smithers,54.78,-127.17,64.4,63.0,75.0,2.24,CA,1595473772.0
131,warrington,53.39,-2.58,59.0,87.0,99.0,8.05,GB,1595474043.0
132,nishihara,26.18,127.76,89.6,62.0,75.0,6.93,JP,1595473800.0
133,paamiut,61.99,-49.67,48.31,84.0,100.0,6.82,GL,1595474044.0
135,nabire,-3.37,135.48,85.15,67.0,3.0,3.33,ID,1595474045.0
136,karratha,-20.74,116.85,76.26,31.0,0.0,15.61,AU,1595473998.0
137,lincoln,40.8,-96.67,78.8,61.0,1.0,8.05,US,1595473899.0
138,rio tercero,-32.17,-64.11,42.01,90.0,66.0,1.99,AR,1595474046.0
139,carnarvon,-24.87,113.63,69.8,68.0,0.0,17.22,AU,1595473588.0
140,sokolo,14.73,-6.12,80.26,72.0,17.0,12.21,ML,1595474047.0
141,grand gaube,-20.01,57.66,69.01,53.0,34.0,5.01,MU,1595473816.0
142,chau doc,10.7,105.12,86.9,66.0,99.0,4.45,VN,1595474048.0
144,pevek,69.7,170.31,56.84,52.0,91.0,11.61,RU,1595473516.0
145,mehamn,71.04,27.85,48.2,100.0,90.0,10.29,NO,1595474049.0
146,knysna,-34.04,23.05,46.4,100.0,0.0,1.12,ZA,1595474049.0
147,vestmannaeyjar,63.44,-20.27,51.13,83.0,100.0,4.54,IS,1595474050.0
148,pudozh,61.81,36.53,56.25,91.0,78.0,7.07,RU,1595474050.0
149,winslow,35.02,-110.7,77.0,41.0,1.0,8.05,US,1595474050.0
150,eureka,40.8,-124.16,57.99,100.0,75.0,5.03,US,1595474051.0
151,jalu,29.03,21.55,72.19,42.0,0.0,8.66,LY,1595474051.0
152,douglas,41.3,-96.17,78.8,65.0,1.0,3.36,US,1595473833.0
153,bilibino,68.05,166.44,79.47,31.0,100.0,13.96,RU,1595474052.0
154,belaya gora,68.53,146.42,92.64,24.0,32.0,6.8,RU,1595473761.0
155,cherskiy,68.75,161.3,82.85,23.0,98.0,14.47,RU,1595473651.0
156,banyo,6.75,11.82,63.77,94.0,100.0,1.88,CM,1595474053.0
158,weinan,34.5,109.51,75.99,83.0,90.0,11.18,CN,1595474053.0
159,amberley,39.2,-84.43,77.0,88.0,1.0,3.36,US,1595474055.0
160,faya,18.39,42.45,71.6,63.0,0.0,3.98,SA,1595474055.0
161,necochea,-38.55,-58.74,48.99,99.0,100.0,21.0,AR,1595473798.0
162,armash,39.77,44.81,69.8,56.0,20.0,1.12,AM,1595474056.0
163,kholmogory,64.22,41.66,64.4,88.0,75.0,11.18,RU,1595474056.0
164,mosquera,4.71,-74.23,51.8,87.0,20.0,8.05,CO,1595473948.0
165,nikolskoye,59.7,30.79,55.4,76.0,40.0,6.71,RU,1595473578.0
166,santa maria,-29.68,-53.81,67.46,84.0,100.0,4.05,BR,1595473646.0
167,kaka,37.35,59.61,88.34,15.0,0.0,8.61,TM,1595474058.0
168,souillac,-20.52,57.52,69.8,52.0,75.0,13.87,MU,1595473746.0
169,cervo,43.67,-7.41,66.0,90.0,49.0,4.68,ES,1595474059.0
171,port macquarie,-31.43,152.92,68.0,66.0,40.0,6.2,AU,1595473566.0
172,saint-philippe,-21.36,55.77,68.0,68.0,90.0,12.75,RE,1595473629.0
173,kodiak,57.79,-152.41,68.0,45.0,1.0,18.34,US,1595473561.0
174,hualmay,-11.1,-77.61,61.0,85.0,4.0,6.8,PE,1595473632.0
175,porto walter,-8.27,-72.74,74.03,84.0,46.0,1.88,BR,1595473866.0
176,yar-sale,66.83,70.83,55.02,59.0,4.0,10.83,RU,1595473790.0
177,tura,25.52,90.22,75.72,95.0,100.0,3.71,IN,1595474061.0
178,tomatlan,19.93,-105.25,76.95,84.0,72.0,3.02,MX,1595473785.0
179,suarez,2.95,-76.7,67.12,82.0,96.0,2.44,CO,1595474062.0
180,bathsheba,13.22,-59.52,82.4,69.0,40.0,17.22,BB,1595474062.0
181,florianopolis,-27.61,-48.5,70.0,93.0,100.0,2.24,BR,1595473847.0
182,hasaki,35.73,140.83,75.0,100.0,75.0,9.17,JP,1595473809.0
183,goderich,43.75,-81.72,71.01,86.0,0.0,6.64,CA,1595474063.0
184,soloneshnoye,51.65,84.32,67.35,64.0,0.0,1.21,RU,1595474064.0
185,awbari,26.59,12.78,73.2,31.0,0.0,6.58,LY,1595474064.0
186,dubbo,-32.25,148.62,60.8,51.0,0.0,3.36,AU,1595473930.0
187,ironton,38.54,-82.68,72.0,100.0,40.0,4.7,US,1595474065.0
188,buraydah,26.33,43.98,93.2,30.0,40.0,4.7,SA,1595474065.0
189,siilinjarvi,63.08,27.67,55.4,93.0,90.0,12.75,FI,1595474066.0
190,gazli,40.13,63.45,89.78,24.0,0.0,23.15,UZ,1595474066.0
191,pionerskiy,54.95,20.23,66.99,87.0,75.0,17.9,RU,1595474067.0
192,oskarshamn,57.26,16.45,46.99,90.0,0.0,3.0,SE,1595474067.0
194,richards bay,-28.78,32.04,57.69,85.0,4.0,6.8,ZA,1595473747.0
195,mogadishu,2.04,45.34,76.57,78.0,72.0,18.77,SO,1595473818.0
196,usinsk,65.99,57.53,69.98,61.0,0.0,8.05,RU,1595474068.0
197,san andres,12.58,-81.7,84.2,79.0,75.0,9.17,CO,1595474069.0
198,ancud,-41.87,-73.82,42.01,100.0,87.0,5.82,CL,1595473783.0
199,sambava,-14.27,50.17,67.96,73.0,100.0,16.58,MG,1595474069.0
200,vila franca do campo,37.72,-25.43,60.8,82.0,20.0,4.7,PT,1595473818.0
201,hithadhoo,-0.6,73.08,83.46,72.0,97.0,10.27,MV,1595473511.0
202,codrington,-38.27,141.97,51.69,70.0,100.0,3.67,AU,1595473509.0
203,hobyo,5.35,48.53,76.17,75.0,40.0,24.32,SO,1595474071.0
204,grand-santi,4.25,-54.38,73.06,96.0,100.0,1.12,GF,1595473514.0
205,les cayes,18.2,-73.75,80.08,75.0,86.0,4.79,HT,1595474071.0
207,moose factory,51.26,-80.61,53.6,87.0,1.0,3.36,CA,1595474072.0
208,hilo,19.73,-155.09,82.4,61.0,90.0,10.29,US,1595473501.0
209,okhotsk,59.38,143.3,62.47,60.0,17.0,11.32,RU,1595473754.0
210,torbay,47.67,-52.73,64.0,67.0,75.0,14.99,CA,1595473514.0
211,charters towers,-20.1,146.27,71.31,58.0,42.0,6.76,AU,1595474074.0
212,castro,-24.79,-50.01,56.91,85.0,100.0,2.68,BR,1595473745.0
213,kalmunai,7.42,81.82,83.84,69.0,95.0,11.41,LK,1595473639.0
214,moerai,-22.43,-151.33,71.56,80.0,15.0,18.48,PF,1595474075.0
215,victor harbor,-35.57,138.62,54.0,70.0,0.0,8.39,AU,1595473748.0
216,cienaga,11.01,-74.25,82.4,83.0,40.0,2.24,CO,1595474075.0
217,newton stewart,54.96,-4.48,61.0,100.0,75.0,3.36,GB,1595474076.0
218,marienburg,54.04,19.03,54.0,76.0,86.0,12.75,PL,1595474076.0
219,bereda,43.27,-7.54,55.0,93.0,75.0,5.99,ES,1595474077.0
220,kahului,20.89,-156.47,86.0,58.0,40.0,18.34,US,1595473769.0
221,paeroa,-37.37,175.67,61.0,67.0,52.0,17.0,NZ,1595474078.0
222,chernyshevskiy,63.01,112.47,67.21,57.0,0.0,4.14,RU,1595473809.0
223,klaksvik,62.23,-6.59,44.6,93.0,100.0,5.93,FO,1595473528.0
224,sorland,67.67,12.69,52.27,81.0,100.0,21.23,NO,1595473766.0
225,port blair,11.67,92.75,85.48,65.0,65.0,3.33,IN,1595473570.0
226,clyde river,70.47,-68.59,42.8,93.0,90.0,1.68,CA,1595473768.0
227,duluth,46.78,-92.11,60.8,82.0,1.0,3.36,US,1595473897.0
228,makakilo city,21.35,-158.09,82.4,65.0,75.0,9.17,US,1595473782.0
229,barra patuca,15.8,-84.28,81.3,84.0,100.0,8.1,HN,1595474081.0
230,havre-saint-pierre,50.23,-63.6,55.4,93.0,1.0,4.7,CA,1595474082.0
231,deer lake,49.17,-57.43,54.77,91.0,35.0,4.65,CA,1595474083.0
232,youghal,51.95,-7.85,59.0,100.0,75.0,9.17,IE,1595474083.0
233,odweyne,9.41,45.06,70.93,63.0,98.0,21.74,SO,1595474084.0
235,manono,-7.3,27.42,68.23,48.0,70.0,5.66,CD,1595474086.0
236,taltal,-25.4,-70.48,53.26,71.0,30.0,3.67,CL,1595473745.0
237,ust-maya,60.42,134.53,72.91,44.0,8.0,8.77,RU,1595474086.0
238,qasigiannguit,68.82,-51.19,50.0,66.0,100.0,1.36,GL,1595473510.0
239,port hope,43.94,-82.71,68.0,88.0,0.0,10.29,US,1595474087.0
240,dunyapur,29.8,71.72,89.6,66.0,0.0,4.7,PK,1595474088.0
241,severnoye,56.35,78.36,57.04,60.0,53.0,7.05,RU,1595474088.0
243,deputatskiy,69.3,139.9,79.88,33.0,90.0,7.27,RU,1595473809.0
244,gat,31.61,34.76,73.99,64.0,0.0,2.33,IL,1595473685.0
245,ayan,56.45,138.17,54.37,85.0,95.0,7.54,RU,1595474090.0
246,samarai,-10.62,150.67,78.21,81.0,46.0,11.72,PG,1595474091.0
247,coronel vivida,-25.98,-52.57,60.03,91.0,100.0,3.53,BR,1595474091.0
248,padang,-0.95,100.35,78.8,83.0,40.0,10.29,ID,1595473775.0
249,axim,4.87,-2.24,74.82,89.0,92.0,6.46,GH,1595473774.0
250,muncar,-8.43,114.33,79.66,78.0,96.0,7.76,ID,1595474092.0
251,mareeba,-17.0,145.43,77.0,69.0,49.0,3.0,AU,1595474012.0
252,turukhansk,65.82,87.98,63.91,46.0,100.0,10.29,RU,1595473799.0
253,georgetown,5.41,100.34,84.2,78.0,20.0,3.36,MY,1595473709.0
254,suraabad,40.82,49.47,77.0,69.0,40.0,11.41,AZ,1595474094.0
255,chabahar,25.29,60.64,84.6,77.0,25.0,8.93,IR,1595474094.0
256,huarmey,-10.07,-78.15,60.98,86.0,16.0,7.47,PE,1595473766.0
257,koster,-25.86,26.9,40.82,47.0,0.0,5.75,ZA,1595474095.0
258,indramayu,-6.33,108.32,85.19,58.0,28.0,7.36,ID,1595474096.0
259,korla,41.76,86.15,73.0,95.0,99.0,7.78,CN,1595473773.0
260,alghero,40.56,8.32,62.6,82.0,0.0,1.12,IT,1595474096.0
261,schneverdingen,53.12,9.8,53.6,76.0,75.0,1.16,DE,1595474078.0
262,hongjiang,27.11,110.0,90.73,52.0,58.0,11.48,CN,1595474097.0
264,terney,45.05,136.61,65.52,80.0,100.0,4.41,RU,1595474098.0
265,qaqortoq,60.72,-46.03,62.6,66.0,100.0,28.86,GL,1595473796.0
266,mackay,-21.15,149.2,69.8,77.0,90.0,13.87,AU,1595474098.0
267,tupik,54.43,119.93,71.22,65.0,91.0,6.73,RU,1595474099.0
268,diffa,13.32,12.61,82.72,61.0,83.0,11.5,NE,1595474099.0
269,tezu,27.92,96.17,78.87,79.0,99.0,0.63,IN,1595474099.0
270,bandarbeyla,9.49,50.81,78.31,63.0,11.0,25.64,SO,1595474100.0
271,adrar,20.5,-10.07,91.96,30.0,0.0,8.41,MR,1595473805.0
272,ponta do sol,32.67,-17.1,68.0,72.0,20.0,16.11,PT,1595473507.0
274,havelock,34.88,-76.9,84.99,74.0,1.0,10.29,US,1595473884.0
275,spokane,47.62,-117.37,88.0,22.0,1.0,12.75,US,1595474101.0
276,kruisfontein,-34.0,24.73,55.49,40.0,0.0,6.76,ZA,1595473752.0
277,rawson,-43.3,-65.1,41.29,69.0,100.0,9.78,AR,1595474102.0
278,tasiilaq,65.61,-37.64,39.2,93.0,7.0,2.91,GL,1595473755.0
279,butwal,27.7,83.45,83.26,75.0,12.0,5.75,NP,1595474103.0
280,monroe,43.15,-77.68,78.01,83.0,40.0,8.05,US,1595474103.0
281,srono,-8.4,114.27,78.6,81.0,98.0,4.74,ID,1595474104.0
282,coquimbo,-29.95,-71.34,53.35,72.0,0.0,4.9,CL,1595473769.0
283,linjiang,41.81,126.91,89.11,41.0,100.0,2.51,CN,1595473659.0
284,chokurdakh,70.63,147.92,90.68,28.0,47.0,10.22,RU,1595473765.0
285,sechura,-5.56,-80.82,64.33,77.0,6.0,12.75,PE,1595473757.0
286,kenai,60.55,-151.26,60.8,72.0,1.0,10.29,US,1595473794.0
287,staraya poltavka,50.48,46.48,67.78,70.0,0.0,10.31,RU,1595474106.0
288,staicele,57.84,24.75,48.99,95.0,35.0,3.0,LV,1595474106.0
289,rocha,-34.48,-54.33,65.25,94.0,100.0,6.78,UY,1595473759.0
290,soe,-9.86,124.28,74.7,52.0,7.0,10.33,ID,1595474107.0
291,leningradskiy,69.38,178.42,64.11,38.0,100.0,7.96,RU,1595473743.0
292,ponta delgada,37.73,-25.67,60.8,82.0,20.0,4.7,PT,1595473781.0
293,morgan city,29.7,-91.21,82.4,83.0,1.0,6.93,US,1595474108.0
294,kerkini,41.22,23.08,68.0,86.0,96.0,1.79,GR,1595474108.0
295,ahipara,-35.17,173.17,59.18,69.0,98.0,13.94,NZ,1595473787.0
296,port hardy,50.7,-127.42,62.6,72.0,20.0,13.87,CA,1595473752.0
297,marsh harbour,26.54,-77.06,82.9,80.0,100.0,16.33,BS,1595473809.0
298,santa rosa,14.31,121.11,93.99,59.0,6.0,6.93,PH,1595474109.0
299,zhigansk,66.77,123.37,65.44,65.0,4.0,18.12,RU,1595474110.0
300,flin flon,54.77,-101.86,70.57,62.0,100.0,8.55,CA,1595474110.0
301,fairbanks,64.84,-147.72,62.01,63.0,75.0,4.47,US,1595473593.0
302,avera,33.19,-82.53,80.6,69.0,1.0,7.7,US,1595473645.0
303,latung,5.5,120.88,84.49,73.0,96.0,13.02,PH,1595474111.0
304,kavieng,-2.57,150.8,85.44,71.0,20.0,13.11,PG,1595473794.0
305,namibe,-15.2,12.15,65.08,69.0,0.0,3.83,AO,1595473802.0
306,thiruvananthapuram,8.48,76.92,84.2,74.0,20.0,2.24,IN,1595474027.0
307,ilulissat,69.22,-51.1,50.0,66.0,100.0,3.49,GL,1595473513.0
308,alvdal,62.11,10.63,42.8,87.0,54.0,9.17,NO,1595474114.0
309,pisco,-13.7,-76.22,63.0,82.0,0.0,3.36,PE,1595473766.0
310,ifo,6.81,3.2,77.0,94.0,40.0,2.24,NG,1595474114.0
312,funadhoo,6.15,73.27,81.88,80.0,86.0,20.22,MV,1595474115.0
313,high level,58.52,-117.14,66.2,59.0,20.0,8.05,CA,1595474115.0
314,tilichiki,60.47,166.1,56.68,71.0,2.0,8.39,RU,1595473505.0
315,roald,62.58,6.13,48.2,81.0,84.0,2.24,NO,1595473776.0
317,mahon,39.89,4.27,71.6,78.0,17.0,5.82,ES,1595474117.0
318,brae,60.4,-1.35,51.8,93.0,100.0,3.36,GB,1595474117.0
319,calderitas,18.55,-88.25,82.65,82.0,0.0,10.63,MX,1595474118.0
320,berlevag,70.86,29.09,48.2,100.0,90.0,10.29,NO,1595473794.0
321,reyes,-14.32,-67.38,74.68,71.0,30.0,1.52,BO,1595474119.0
322,berdigestyakh,62.1,126.7,77.14,44.0,1.0,9.4,RU,1595474118.0
323,skelleftea,64.75,20.95,51.01,93.0,100.0,14.99,SE,1595474120.0
324,sinnamary,5.38,-52.95,77.36,85.0,100.0,7.29,GF,1595473634.0
325,huilong,31.81,121.66,99.0,56.0,100.0,1.01,CN,1595474120.0
326,comodoro rivadavia,-45.87,-67.5,30.2,92.0,0.0,1.12,AR,1595473603.0
328,carballo,43.21,-8.69,62.01,93.0,39.0,3.36,ES,1595474121.0
329,qarchi gak,37.04,66.79,93.2,35.0,0.0,2.24,AF,1595474122.0
332,kurchum,48.57,83.65,68.05,55.0,92.0,4.47,KZ,1595474123.0
333,kulhudhuffushi,6.62,73.07,81.86,79.0,95.0,20.83,MV,1595474124.0
334,stephenville,32.22,-98.2,86.0,58.0,1.0,10.29,US,1595474124.0
335,kaitangata,-46.28,169.85,45.0,61.0,97.0,3.0,NZ,1595473744.0
336,port augusta,-32.5,137.77,57.99,54.0,0.0,6.93,AU,1595473591.0
337,bethel,41.37,-73.41,71.6,94.0,1.0,3.36,US,1595473775.0
339,rezina,47.75,28.96,57.25,86.0,1.0,4.09,MD,1595474126.0
340,lompoc,34.64,-120.46,62.6,77.0,3.0,12.75,US,1595473466.0
341,tema,5.67,-0.02,77.0,88.0,40.0,8.05,GH,1595474127.0
343,fuerte olimpo,-21.04,-57.87,69.89,46.0,0.0,4.47,PY,1595474128.0
344,limbang,4.75,115.0,82.4,83.0,75.0,6.93,MY,1595474129.0
345,severo-kurilsk,50.68,156.12,52.05,86.0,100.0,3.98,RU,1595473747.0
346,meulaboh,4.14,96.13,81.0,77.0,100.0,5.46,ID,1595473781.0
347,tautira,-17.73,-149.15,80.6,65.0,40.0,4.7,PF,1595473750.0
348,norman wells,65.28,-126.83,53.6,81.0,75.0,12.75,CA,1595473750.0
349,haysville,37.56,-97.35,86.0,55.0,1.0,8.05,US,1595473956.0
350,nanyamba,-10.68,39.83,68.0,88.0,20.0,11.41,TZ,1595474131.0
351,terracina,41.29,13.22,73.99,68.0,0.0,1.86,IT,1595474132.0
354,ukiah,39.15,-123.21,84.2,37.0,1.0,5.82,US,1595473804.0
355,ningyang,35.76,116.79,81.9,61.0,31.0,8.63,CN,1595474133.0
356,akyab,20.15,92.9,81.95,83.0,100.0,9.01,MM,1595473928.0
357,vanimo,-2.67,141.3,84.74,68.0,22.0,7.25,PG,1595474134.0
358,bom jesus,-9.07,-44.36,69.22,68.0,55.0,3.47,BR,1595474134.0
359,balabac,7.99,117.06,86.41,70.0,100.0,10.94,PH,1595474135.0
360,aklavik,68.22,-135.01,53.6,54.0,20.0,5.82,CA,1595473775.0
361,bubaque,11.28,-15.83,80.56,83.0,85.0,10.98,GW,1595474135.0
362,caravelas,-17.71,-39.25,66.99,72.0,0.0,1.95,BR,1595473563.0
363,gidole,5.65,37.37,56.55,100.0,90.0,3.2,ET,1595474136.0
364,husavik,66.04,-17.34,48.2,81.0,90.0,8.05,IS,1595473679.0
365,santa ana,33.75,-117.87,68.0,68.0,20.0,8.05,US,1595473845.0
366,qiqihar,47.34,123.97,95.11,28.0,17.0,8.63,CN,1595474137.0
367,touros,-5.2,-35.46,75.2,78.0,75.0,9.17,BR,1595473743.0
368,bambanglipuro,-7.95,110.28,81.99,66.0,43.0,14.56,ID,1595474007.0
369,champerico,14.3,-91.92,80.6,78.0,100.0,2.04,GT,1595474138.0
371,rocky mountain house,52.37,-114.92,64.58,89.0,54.0,5.75,CA,1595474139.0
373,mount isa,-20.73,139.5,77.0,25.0,0.0,10.29,AU,1595473557.0
374,haines junction,60.75,-137.51,53.38,81.0,92.0,3.76,CA,1595473628.0
375,yagodnoye,62.55,149.67,75.25,36.0,100.0,2.37,RU,1595474140.0
376,port moresby,-9.44,147.18,84.2,74.0,40.0,11.41,PG,1595473808.0
377,kenora,49.82,-94.43,69.8,56.0,40.0,5.82,CA,1595474059.0
378,biltine,14.53,20.92,77.14,62.0,99.0,9.15,TD,1595474141.0
379,half moon bay,37.46,-122.43,66.2,82.0,90.0,6.93,US,1595473808.0
380,kangaatsiaq,68.31,-53.46,49.82,70.0,24.0,5.61,GL,1595474142.0
381,yulara,-25.24,130.99,59.0,38.0,0.0,12.75,AU,1595473782.0
382,severinia,-20.81,-48.8,66.2,52.0,0.0,7.94,BR,1595474144.0
383,chiredzi,-21.05,31.67,52.66,90.0,0.0,3.87,ZW,1595474144.0
384,westport,41.14,-73.36,75.2,83.0,40.0,3.36,US,1595474145.0
386,juegang,32.32,121.19,84.0,79.0,100.0,1.01,CN,1595473798.0
387,evensk,61.95,159.23,62.15,55.0,4.0,8.75,RU,1595474146.0
388,kamenka,51.32,42.77,61.0,83.0,0.0,1.99,RU,1595474147.0
389,umm lajj,25.02,37.27,83.55,76.0,4.0,5.77,SA,1595473751.0
390,seymchan,62.88,152.43,79.25,36.0,52.0,5.73,RU,1595474148.0
391,kamaishi,39.27,141.88,84.2,66.0,75.0,6.93,JP,1595474148.0
392,chlorakas,34.8,32.41,71.6,60.0,0.0,5.82,CY,1595474148.0
393,bonavista,48.65,-53.11,60.96,72.0,54.0,9.86,CA,1595474149.0
394,lagoa,39.05,-27.98,69.48,69.0,0.0,3.42,PT,1595473791.0
396,praia,14.92,-23.51,78.8,83.0,20.0,3.36,CV,1595473621.0
399,san quintin,30.48,-115.95,64.98,83.0,26.0,13.06,MX,1595473757.0
400,tateyama,34.98,139.87,81.0,78.0,75.0,14.99,JP,1595474152.0
401,zhanaozen,43.3,52.8,76.28,48.0,63.0,6.98,KZ,1595474153.0
402,kampong thum,12.71,104.89,87.4,67.0,96.0,4.72,KH,1595474153.0
403,alexandria,31.22,29.96,77.0,83.0,40.0,11.41,EG,1595474154.0
404,nata,8.33,-80.52,76.39,90.0,100.0,2.95,PA,1595474154.0
405,sarkand,45.41,79.92,77.81,32.0,26.0,1.21,KZ,1595474155.0
406,olinda,-8.01,-34.86,73.4,83.0,40.0,6.93,BR,1595473799.0
407,vikhorevka,56.12,101.16,64.4,68.0,75.0,6.71,RU,1595474156.0
408,amurzet,47.7,131.1,82.47,58.0,92.0,2.59,RU,1595473796.0
409,oranjestad,12.52,-70.03,82.4,78.0,20.0,17.22,AW,1595473885.0
410,avarua,-21.21,-159.78,77.0,88.0,23.0,11.41,CK,1595473749.0
411,naryan-mar,67.67,53.09,68.77,62.0,0.0,11.12,RU,1595474157.0
412,hami,42.8,93.45,87.33,22.0,67.0,5.39,CN,1595473777.0
413,falesti,47.57,27.71,64.0,83.0,76.0,1.01,MD,1595474158.0
414,skovorodino,53.98,123.92,60.26,90.0,100.0,7.43,RU,1595474158.0
415,hurghada,27.26,33.81,86.0,30.0,0.0,8.05,EG,1595474158.0
416,banda aceh,5.56,95.32,83.88,65.0,100.0,6.46,ID,1595474102.0
417,kokopo,-4.35,152.26,86.85,64.0,1.0,9.01,PG,1595474159.0
418,atambua,-9.11,124.89,81.82,41.0,13.0,4.59,ID,1595473779.0
419,san cristobal,7.77,-72.22,65.03,90.0,69.0,2.68,VE,1595473802.0
420,sao felix do xingu,-6.64,-51.99,72.36,61.0,14.0,1.34,BR,1595474160.0
421,nantucket,41.28,-70.1,72.0,94.0,90.0,8.05,US,1595474161.0
422,aksarayskiy,46.79,48.01,73.4,46.0,0.0,6.71,RU,1595474161.0
423,augusto correa,-1.02,-46.63,74.48,89.0,98.0,3.62,BR,1595474162.0
424,daru,-9.08,143.21,78.58,80.0,99.0,11.86,PG,1595474163.0
425,otradnoye,59.78,30.82,55.4,76.0,40.0,8.95,RU,1595474164.0
427,grindavik,63.84,-22.43,48.2,81.0,75.0,11.41,IS,1595474165.0
428,bay roberts,47.6,-53.26,61.0,56.0,50.0,10.87,CA,1595474165.0
429,maracacume,-2.04,-45.96,70.86,92.0,67.0,2.28,BR,1595474165.0
430,inuvik,68.35,-133.72,53.6,54.0,20.0,5.82,CA,1595473795.0
431,xuddur,4.12,43.89,69.89,73.0,65.0,19.98,SO,1595474166.0
432,aitape,-3.14,142.35,84.63,73.0,42.0,6.11,PG,1595474166.0
433,singkawang,0.9,109.0,77.56,90.0,100.0,6.08,ID,1595474167.0
434,izumo,35.37,132.77,73.4,88.0,75.0,8.05,JP,1595474149.0
435,srandakan,-7.94,110.25,81.84,66.0,48.0,14.14,ID,1595474167.0
436,voykove,45.38,36.44,72.27,71.0,0.0,14.67,UA,1595474168.0
437,gornopravdinsk,60.05,69.9,59.43,53.0,0.0,5.14,RU,1595474168.0
438,bafra,41.57,35.91,68.0,82.0,40.0,3.36,TR,1595474168.0
439,kurud,20.83,81.72,77.0,88.0,75.0,13.87,IN,1595474169.0
440,ostrovnoy,68.05,39.51,63.3,71.0,23.0,14.67,RU,1595473745.0
441,fortuna,40.6,-124.16,59.0,100.0,90.0,11.41,US,1595473751.0
442,malakal,9.53,31.66,69.73,97.0,100.0,3.0,SS,1595474170.0
443,mnogovershinnyy,53.94,139.92,55.31,87.0,100.0,4.68,RU,1595474171.0
444,red bluff,40.18,-122.24,87.8,27.0,1.0,8.05,US,1595474171.0
445,geraldton,-28.77,114.6,66.2,63.0,90.0,16.11,AU,1595473712.0
446,chapais,49.78,-74.85,59.0,87.0,90.0,4.7,CA,1595473789.0
447,northam,51.03,-4.22,55.0,94.0,100.0,5.99,GB,1595474172.0
448,linxia,35.6,103.21,68.32,75.0,100.0,1.14,CN,1595473771.0
449,yongzhou,26.46,111.6,90.86,56.0,94.0,11.12,CN,1595474173.0
450,altamont,42.21,-121.74,80.6,28.0,1.0,13.87,US,1595473941.0
451,vuktyl,63.86,57.31,69.12,56.0,4.0,9.8,RU,1595474174.0
452,langres,47.83,5.33,64.4,45.0,68.0,3.36,FR,1595474174.0
453,byron bay,-28.65,153.62,60.8,77.0,75.0,9.17,AU,1595474175.0
454,george,-33.96,22.46,46.4,100.0,0.0,1.12,ZA,1595474175.0
455,sungaipenuh,-2.08,101.38,77.14,66.0,96.0,1.36,ID,1595474176.0
456,rafaela,-31.25,-61.49,54.0,66.0,100.0,4.0,AR,1595474176.0
457,ati,13.22,18.34,82.35,60.0,97.0,13.51,TD,1595474177.0
458,poroshkovo,48.67,22.75,52.0,62.0,28.0,1.99,UA,1595474177.0
460,mayumba,-3.43,10.66,68.76,89.0,69.0,1.16,GA,1595474178.0
461,bafata,12.17,-14.75,74.28,96.0,100.0,4.03,GW,1595474178.0
463,turayf,31.67,38.66,78.8,44.0,0.0,5.82,SA,1595474179.0
464,rio grande,-32.03,-52.1,64.0,92.0,99.0,12.37,BR,1595473958.0
465,baykit,61.67,96.37,60.22,72.0,98.0,2.59,RU,1595474180.0
466,namatanai,-3.67,152.43,84.7,71.0,45.0,8.68,PG,1595474180.0
467,north bend,43.41,-124.22,62.01,87.0,90.0,12.75,US,1595473807.0
468,maceio,-9.67,-35.74,69.8,94.0,75.0,3.36,BR,1595474181.0
469,naliya,23.27,68.83,85.51,72.0,35.0,15.3,IN,1595474182.0
470,laguna,38.42,-121.42,78.8,44.0,1.0,10.29,US,1595473771.0
471,vostok,46.49,135.88,79.34,59.0,85.0,2.53,RU,1595473767.0
472,swan hill,-35.34,143.55,54.73,46.0,0.0,6.89,AU,1595474183.0
473,taoudenni,22.68,-3.98,99.55,21.0,49.0,8.28,ML,1595473810.0
474,muros,42.78,-9.06,62.01,87.0,6.0,1.12,ES,1595473617.0
475,yatou,37.15,122.38,69.33,94.0,100.0,33.44,CN,1595474184.0
476,faanui,-16.48,-151.75,77.27,77.0,0.0,18.34,PF,1595473775.0
477,olafsvik,64.89,-23.71,48.6,77.0,46.0,8.55,IS,1595473803.0
478,synya,65.37,58.04,71.49,57.0,0.0,6.17,RU,1595474185.0
480,borogontsy,62.67,131.17,72.01,47.0,58.0,9.4,RU,1595474186.0
481,marawi,8.0,124.29,84.0,77.0,18.0,5.01,PH,1595474187.0
482,karpathos,35.51,27.21,75.2,83.0,0.0,25.28,GR,1595474187.0
483,honningsvag,70.98,25.97,48.2,100.0,90.0,10.29,NO,1595474187.0
484,mbanza-ngungu,-5.25,14.87,64.63,73.0,100.0,6.15,CD,1595474188.0
485,qandala,11.47,49.87,86.41,49.0,4.0,12.77,SO,1595474188.0
486,ahuimanu,21.44,-157.84,82.4,58.0,75.0,6.93,US,1595474188.0
487,sao joao da barra,-21.64,-41.05,70.88,88.0,0.0,9.42,BR,1595473747.0
488,shiyan,32.65,110.78,74.01,84.0,100.0,6.35,CN,1595474055.0
489,cuicatlan,17.8,-96.97,72.36,71.0,85.0,1.5,MX,1595474189.0
490,coihaique,-45.58,-72.07,30.2,80.0,90.0,4.7,CL,1595473763.0
491,nacala,-14.54,40.67,63.03,82.0,0.0,9.57,MZ,1595473787.0
493,kuryk,43.2,51.65,77.41,57.0,48.0,4.92,KZ,1595474191.0
494,trairi,-3.28,-39.27,74.48,88.0,0.0,5.46,BR,1595473757.0
497,kushima,31.46,131.23,87.8,70.0,75.0,10.29,JP,1595474192.0
498,nome,64.5,-165.41,59.0,76.0,1.0,21.92,US,1595473625.0
499,merrill,45.18,-89.68,66.2,100.0,1.0,5.82,US,1595474193.0
501,sangar,63.92,127.47,69.51,54.0,4.0,12.84,RU,1595474194.0
502,san miguel,13.48,-88.18,75.18,92.0,60.0,2.04,SV,1595474194.0
503,shingu,33.73,135.98,84.2,70.0,75.0,6.93,JP,1595474195.0
504,srednekolymsk,67.45,153.68,87.76,26.0,67.0,6.98,RU,1595473810.0
505,tiarei,-17.53,-149.33,80.6,65.0,40.0,4.7,PF,1595474196.0
506,hofn,64.25,-15.21,49.57,83.0,100.0,10.02,IS,1595473807.0
507,inhapim,-19.55,-42.12,62.46,82.0,6.0,2.1,BR,1595474196.0
508,tebingtinggi,3.33,99.16,86.0,70.0,40.0,2.24,ID,1595474197.0
509,labuhan,-6.88,112.21,83.35,68.0,74.0,3.67,ID,1595473765.0
510,komsomolskiy,40.43,71.72,80.6,39.0,46.0,4.7,UZ,1595474198.0
511,providencia,28.72,-111.58,88.0,60.0,2.0,7.0,MX,1595474198.0
512,san luis,-33.3,-66.34,40.21,84.0,100.0,16.28,AR,1595474066.0
513,beyneu,45.32,55.2,78.93,57.0,0.0,9.08,KZ,1595474199.0
514,oussouye,12.48,-16.55,79.14,84.0,90.0,8.21,SN,1595474199.0
515,katherine,-14.47,132.27,82.4,24.0,0.0,13.87,AU,1595474199.0
516,san lorenzo,-25.33,-57.53,75.2,50.0,7.0,5.82,PY,1595474200.0
517,lieksa,63.32,30.02,57.02,95.0,100.0,9.01,FI,1595474200.0
518,bartica,6.4,-58.62,73.51,96.0,100.0,2.04,GY,1595474201.0
520,paso de los toros,-32.82,-56.52,64.42,96.0,100.0,5.97,UY,1595474201.0
521,najran,17.49,44.13,82.4,20.0,40.0,4.7,SA,1595473756.0
522,puerto narino,-3.77,-70.38,77.0,100.0,75.0,4.7,CO,1595474202.0
523,helong,42.54,129.0,83.05,42.0,100.0,5.95,CN,1595474203.0
524,dickinson,29.46,-95.05,84.0,88.0,40.0,7.99,US,1595474065.0
525,presidencia roque saenz pena,-26.79,-60.44,61.12,76.0,76.0,7.58,AR,1595473783.0
526,yerofey pavlovich,53.97,121.97,66.52,71.0,100.0,10.0,RU,1595474204.0
528,honiara,-9.43,159.95,87.8,70.0,75.0,11.41,SB,1595473813.0
529,la ronge,55.1,-105.28,71.6,78.0,75.0,3.36,CA,1595473762.0
530,antalaha,-14.9,50.28,67.21,77.0,93.0,11.83,MG,1595474206.0
531,santa cruz,-17.8,-63.17,73.4,78.0,75.0,6.93,BO,1595474206.0
532,calama,-22.47,-68.93,39.2,27.0,0.0,13.87,CL,1595474207.0
533,gisborne,-38.65,178.0,64.0,36.0,0.0,11.01,NZ,1595474189.0
534,grass valley,39.22,-121.06,81.0,34.0,1.0,4.7,US,1595474122.0
535,sokna,60.24,9.92,46.99,79.0,41.0,5.99,NO,1595474208.0
536,cerrito,6.84,-72.69,49.05,85.0,34.0,5.5,CO,1595474208.0
537,muisne,0.6,-80.03,73.02,88.0,100.0,10.16,EC,1595474208.0
538,orlik,52.52,99.83,65.59,45.0,13.0,3.67,RU,1595473777.0
539,udachnyy,66.42,112.4,55.4,76.0,90.0,8.95,RU,1595474210.0
540,wunsiedel,50.03,12.02,51.01,85.0,78.0,2.62,DE,1595474210.0
541,ilinskiy,55.62,38.12,55.99,87.0,0.0,8.95,RU,1595474211.0
542,araouane,18.9,-3.53,94.68,31.0,0.0,8.12,ML,1595474211.0
543,ghorawal,24.77,82.78,83.46,72.0,100.0,4.07,IN,1595474212.0
544,tungao,8.78,125.57,87.75,65.0,43.0,6.13,PH,1595474212.0
545,oyo,7.85,3.93,70.03,97.0,100.0,4.12,NG,1595474212.0
546,ambulu,-8.35,113.61,81.99,66.0,52.0,7.47,ID,1595474213.0
547,viedma,-40.81,-63.0,43.0,91.0,100.0,1.99,AR,1595473930.0
548,the pas,53.83,-101.25,75.2,69.0,40.0,11.41,CA,1595474095.0
549,asilah,35.47,-6.03,69.8,83.0,40.0,4.7,MA,1595474214.0
550,mamallapuram,12.63,80.17,84.2,74.0,75.0,11.41,IN,1595474215.0
551,issoire,45.55,3.25,60.8,93.0,20.0,1.12,FR,1595474215.0
552,eldorado,-23.79,-54.28,65.64,62.0,91.0,6.64,BR,1595474215.0
553,baijiantan,45.63,85.18,84.88,32.0,17.0,4.7,CN,1595474216.0
554,kotka,60.47,26.95,53.6,81.0,90.0,12.75,FI,1595474216.0
555,bekessamson,46.42,20.63,64.99,100.0,76.0,3.36,HU,1595474216.0
556,macusani,-14.08,-70.43,33.76,88.0,8.0,2.13,PE,1595474217.0
557,hurricane,37.18,-113.29,95.0,15.0,1.0,13.87,US,1595474217.0
558,cabo san lucas,22.89,-109.91,84.0,78.0,5.0,10.29,MX,1595473759.0
561,luderitz,-26.65,15.16,62.6,36.0,0.0,3.36,NA,1595473768.0
562,amuntai,-2.42,115.25,86.63,69.0,54.0,2.17,ID,1595474077.0
563,tuatapere,-46.13,167.68,39.0,83.0,89.0,3.0,NZ,1595473509.0
564,razgrad,43.53,26.52,64.02,73.0,0.0,3.11,BG,1595474220.0
565,buala,-8.14,159.59,84.83,71.0,12.0,11.23,SB,1595473746.0
566,kailua,21.4,-157.74,82.4,58.0,75.0,6.93,US,1595473799.0
567,mercedes,-34.65,-59.43,55.99,99.0,100.0,1.99,AR,1595474221.0
568,jutai,-5.18,-68.9,74.89,72.0,65.0,2.28,BR,1595474221.0
570,pascagoula,30.37,-88.56,80.6,83.0,1.0,11.9,US,1595474222.0
571,yarkovo,57.4,67.08,63.99,56.0,0.0,10.18,RU,1595474222.0
573,mitsamiouli,-11.38,43.28,74.91,68.0,2.0,17.25,KM,1595473790.0
574,nisia floresta,-6.09,-35.21,75.2,78.0,75.0,10.29,BR,1595474224.0
575,ribas do rio pardo,-20.44,-53.76,64.9,43.0,3.0,3.13,BR,1595474224.0
576,nazareno etla,17.18,-96.82,64.31,78.0,99.0,3.42,MX,1595474224.0
577,ledec,49.97,15.59,53.6,93.0,73.0,0.76,CZ,1595474225.0
578,roma,43.21,-75.46,70.0,88.0,1.0,4.7,US,1595474174.0
579,tiznit,29.58,-9.5,78.06,38.0,0.0,1.57,MA,1595474226.0
580,stuttgart,48.78,9.18,57.0,71.0,64.0,1.19,DE,1595474198.0
581,emba,48.83,58.14,76.51,43.0,0.0,14.99,KZ,1595474227.0
582,novoalekseyevskaya,44.82,40.93,63.55,75.0,0.0,5.48,RU,1595474227.0
583,wilmington,34.23,-77.94,82.4,74.0,1.0,6.93,US,1595473934.0
585,edgewater,28.99,-80.9,82.4,78.0,40.0,10.29,US,1595474228.0
586,biak,-0.91,122.88,79.61,79.0,92.0,9.24,ID,1595474228.0
587,palu,-0.89,119.87,83.8,71.0,91.0,2.84,ID,1595474229.0
588,nayoro,44.35,142.46,71.26,67.0,100.0,9.1,JP,1595474229.0
589,langham,52.37,-106.97,84.2,62.0,20.0,11.41,CA,1595474230.0
590,kununurra,-15.77,128.73,78.8,21.0,0.0,12.75,AU,1595473802.0
591,henties bay,-22.12,14.28,66.58,30.0,0.0,6.55,NA,1595473796.0
592,manzhouli,49.6,117.43,83.48,42.0,100.0,17.0,CN,1595474231.0
593,voh,-20.97,164.7,75.97,50.0,71.0,7.14,NC,1595474231.0
594,naze,28.37,129.48,87.8,79.0,75.0,8.05,JP,1595473753.0
595,buta,2.79,24.73,68.77,98.0,100.0,1.77,CD,1595474232.0
596,kralendijk,12.15,-68.27,82.4,78.0,48.0,13.87,BQ,1595474233.0
597,winneba,5.35,-0.62,77.0,88.0,40.0,8.05,GH,1595474233.0
598,columbus,39.96,-83.0,75.99,83.0,90.0,6.93,US,1595474010.0
599,sidney,-33.87,151.21,66.0,55.0,20.0,5.82,AU,1595474184.0
600,scarborough,54.28,-0.4,59.0,89.0,90.0,1.99,GB,1595474234.0
601,erzin,36.96,36.2,79.0,86.0,7.0,0.63,TR,1595474234.0
602,new ulm,44.31,-94.46,64.99,72.0,1.0,6.93,US,1595473635.0
603,dibulla,11.27,-73.31,78.51,81.0,33.0,7.0,CO,1595474235.0
604,lilongwe,-13.97,33.79,51.19,85.0,0.0,4.81,MW,1595474235.0
605,lady lake,28.92,-81.92,80.6,83.0,20.0,6.93,US,1595474236.0
